{"name":"Op de weg","description":"Pluspunt, Albardakade 5","latitude":52.378215,"longitude":4.80323,"isASite":true}
{"name":"Hart van Geuzenveld","description":"Lambertus Zijlplein","latitude":52.378167,"longitude":4.801803,"isASite":true}
{"name":"Leven in een bouwput","description":"Bouwterrein, hoek Kruisherenpad/Sam van Houtenstraat","latitude":52.380079,"longitude":4.801733,"isASite":true}
{"latitude":52.379277,"longitude":4.801793,"isASite":false}
{"latitude":52.379296,"longitude":4.803075,"isASite":false}
{"latitude":52.378992,"longitude":4.803112,"isASite":false}
{"latitude":52.379025,"longitude":4.804308,"isASite":false}
{"name":"De eerste jaren","description":"Hoek Bouwen Ewoutszstraat/Dirk Sonoystraat","latitude":52.37818,"longitude":4.804346,"isASite":true}
{"name":"Smeltkroes","description":"Nicolaas Ruychaverstraat","latitude":52.376783,"longitude":4.803587,"isASite":true}
{"name":"Verzet tegen sloop","description":"Hoek De Savornin Lohmanstraat/Troelstralaan","latitude":52.375256,"longitude":4.802079,"isASite":true}
{"name":"Nieuwe Tijden","description":"De Drakenkop, van Karnebeekstraat 15","latitude":52.374407,"longitude":4.799251,"isASite":true}
{"name":"Voetbaldromen","description":"Sportveldje, Aalversestraat (veld bij de bushalte)","latitude":52.376349,"longitude":4.797557,"isASite":true}
{"name":"Roomse inslag","description":"Kerkgebouw, Aalbersestraat","latitude":52.379627,"longitude":4.798067,"isASite":true}
{"name":"Leren wonen","description":"Speelplein, Abraham van der Hartstraat/Jacob Husleystraat","latitude":52.380934,"longitude":4.796317,"isASite":true}
{"name":"Geuzennaam","description":"Beeld \u0027De Eendracht\u0027, Ruys de Beerenbrouckstraat","latitude":52.38243,"longitude":4.798051,"isASite":true}
{"name":"Kunstgreep","description":"De Geuzentuinen, Kruisherenpad","latitude":52.380953,"longitude":4.80169,"isASite":true}
{"name":"Bakkie troost","description":"Bouwterrein, Wigbolt Ripperdastraat","latitude":52.381736,"longitude":4.806175,"isASite":true}
{"name":"Hoog niveau","description":"Parkrand, Dr H. Colijnstraat","latitude":52.381182,"longitude":4.806642,"isASite":true}
{"name":"Naar huis","description":"Hoek Dr H. Colijnstraat/Dirk Sonoystraat","latitude":52.378239,"longitude":4.806481,"isASite":true}
